$GPVTG,,T,,M,0.140,N,0.259,K,D*2D
$GPGGA,182641.00,2617.12300,S,02804.24155,E,2,04,6.02,1635.3,M,23.0,M,,0000*72
$GPGSA,A,3,26,32,16,27,,,,,,,,,13.00,6.02,11.52*04
$GPGSV,3,1,12,03,23,252,21,04,11,220,,16,51,297,44,22,65,052,34*74
$GPGSV,3,2,12,26,72,214,21,27,21,357,35,28,45,127,,29,19,130,13*73
$GPGSV,3,3,12,31,52,150,10,32,36,039,38,39,40,059,34,40,47,049,39*7A
$GPGLL,2617.12300,S,02804.24155,E,182641.00,A,D*72
$GPTXT,01,01,02,u-blox ag - www.u-blox.com*50
$GPTXT,01,01,02,HW  UBX-G70xx   00070000 *77
$GPTXT,01,01,02,ROM CORE 1.00 (59842) Jun 27 2012 17:43:52*59
$GPTXT,01,01,02,PROTVER 14.00*1E
$GPTXT,01,01,02,ANTSUPERV=AC SD PDoS SR*20
$GPTXT,01,01,02,ANTSTATUS=OK*3B
$GPTXT,01,01,02,LLC FFFFFFFF-FFFFFFFD-FFFFFFFF-FFFFFFFF-FFFFFFFD*2E
$GPRMC,182642.00,A,2617.12304,S,02804.24158,E,0.103,,140323,,,D*64
$GPVTG,,T,,M,0.103,N,0.191,K,D*2D
$GPGGA,182642.00,2617.12304,S,02804.24158,E,2,04,6.02,1635.3,M,23.0,M,,0000*78
$GPGSA,A,3,26,32,16,27,,,,,,,,,13.00,6.02,11.53*05
$GPGSV,3,1,12,03,23,252,21,04,11,220,,16,51,297,43,22,65,052,34*73
$GPGSV,3,2,12,26,72,214,20,27,21,357,35,28,45,127,,29,19,130,12*73
$GPGSV,3,3,12,31,52,150,09,32,36,039,38,39,40,059,34,40,47,049,39*72
$GPGLL,2617.12304,S,02804.24158,E,182642.00,A,D*78
$GPRMC,182643.00,A,2617.12307,S,02804.24159,E,0.135,,140323,,,D*62
$GPVTG,,T,,M,0.135,N,0.250,K,D*26
$GPGGA,182643.00,2617.12307,S,02804.24159,E,2,04,6.02,1635.3,M,23.0,M,,0000*7B
$GPGSA,A,3,26,32,16,27,,,,,,,,,13.01,6.02,11.53*04
$GPGSV,3,1,12,03,23,252,21,04,11,220,,16,51,297,43,22,65,052,34*73
$GPGSV,3,2,12,26,72,214,20,27,21,357,35,28,45,127,,29,19,130,09*79
$GPGSV,3,3,12,31,52,150,08,32,36,039,40,39,40,059,34,40,47,049,39*7C
$GPGLL,2617.12307,S,02804.24159,E,182643.00,A,D*7B
$GPRMC,182644.00,A,2617.12304,S,02804.24160,E,0.033,,140323,,,D*6B
$GPVTG,,T,,M,0.033,N,0.061,K,D*21
$GPGGA,182644.00,2617.12304,S,02804.24160,E,2,04,6.02,1635.4,M,23.0,M,,0000*72
$GPGSA,A,3,26,32,16,27,,,,,,,,,13.02,6.02,11.54*00
$GPGSV,3,1,12,03,23,252,21,04,11,220,,16,51,297,43,22,65,052,33*74
$GPGSV,3,2,12,26,72,214,19,27,21,357,35,28,45,127,,29,19,130,09*73
$GPGSV,3,3,12,31,52,150,12,32,36,039,38,39,40,059,34,40,47,049,39*78
$GPGLL,2617.12304,S,02804.24160,E,182644.00,A,D*75
$GPRMC,182645.00,A,2617.12225,S,02804.24147,E,0.007,,140323,,,D*6A
$GPVTG,,T,,M,0.007,N,0.014,K,D*24
$GPGGA,182645.00,2617.12225,S,02804.24147,E,2,05,1.69,1637.0,M,23.0,M,,0000*79
$GPGSA,A,3,26,32,16,29,27,,,,,,,,3.13,1.69,2.64*01
$GPGSV,3,1,12,03,23,252,21,04,11,220,,16,51,297,43,22,65,052,33*74
$GPGSV,3,2,12,26,72,214,20,27,21,357,35,28,45,127,,29,19,130,11*70
$GPGSV,3,3,12,31,52,150,12,32,36,039,38,39,40,059,34,40,47,049,39*78
$GPGLL,2617.12225,S,02804.24147,E,182645.00,A,D*73
$GPRMC,182646.00,A,2617.12141,S,02804.24133,E,0.006,,140323,,,D*6A
$GPVTG,,T,,M,0.006,N,0.011,K,D*20
$GPGGA,182646.00,2617.12141,S,02804.24133,E,2,05,1.69,1638.8,M,23.0,M,,0000*7F
$GPGSA,A,3,26,32,16,29,27,,,,,,,,3.13,1.69,2.64*01
$GPGSV,3,1,12,03,23,252,21,04,11,220,,16,51,297,38,22,65,052,30*7B
$GPGSV,3,2,12,26,72,214,18,27,21,357,31,28,45,127,,29,19,130,10*7E
$GPGSV,3,3,12,31,52,150,12,32,36,039,34,39,40,059,33,40,47,049,34*7E
$GPGLL,2617.12141,S,02804.24133,E,182646.00,A,D*72
$GPRMC,182647.00,A,2617.12140,S,02804.24131,E,0.049,,140323,,,D*63
$GPVTG,,T,,M,0.049,N,0.091,K,D*23
$GPGGA,182647.00,2617.12140,S,02804.24131,E,2,04,6.02,1638.8,M,23.0,M,,0000*76
$GPGSA,A,3,26,32,16,27,,,,,,,,,13.03,6.02,11.56*03
$GPGSV,3,1,12,03,23,252,20,04,11,220,,16,51,297,43,22,65,052,33*75
$GPGSV,3,2,12,26,72,214,19,27,21,357,35,28,45,127,,29,19,130,10*7B
$GPGSV,3,3,12,31,52,150,12,32,36,039,38,39,40,059,34,40,47,049,38*79
$GPGLL,2617.12140,S,02804.24131,E,182647.00,A,D*70
$GPRMC,182648.00,A,2617.12134,S,02804.24129,E,0.089,,140323,,,D*6A
$GPVTG,,T,,M,0.089,N,0.165,K,D*25
$GPGGA,182648.00,2617.12134,S,02804.24129,E,2,04,6.03,1638.8,M,23.0,M,,0000*72
$GPGSA,A,3,26,32,16,27,,,,,,,,,13.04,6.03,11.57*04
$GPGSV,3,1,12,03,23,252,20,04,11,220,,16,51,297,43,22,65,052,33*75
$GPGSV,3,2,12,26,72,214,20,27,21,357,35,28,45,127,,29,19,130,11*70
$GPGSV,3,3,12,31,52,150,12,32,36,039,38,39,40,059,34,40,47,049,38*79
$GPGLL,2617.12134,S,02804.24129,E,182648.00,A,D*75
$GPRMC,182649.00,A,2617.12139,S,02804.24131,E,0.030,,140323,,,D*6D
$GPVTG,,T,,M,0.030,N,0.056,K,D*26
$GPGGA,182649.00,2617.12139,S,02804.24131,E,2,04,6.03,1638.9,M,23.0,M,,0000*76
$GPGSA,A,3,26,32,16,27,,,,,,,,,13.05,6.03,11.57*05
$GPGSV,3,1,12,03,23,252,20,04,11,220,,16,51,297,43,22,65,052,34*72
$GPGSV,3,2,12,26,72,214,20,27,21,357,35,28,45,127,,29,19,130,*70
$GPGSV,3,3,12,31,52,150,,32,36,039,39,39,40,059,34,40,47,049,38*7B
$GPGLL,2617.12139,S,02804.24131,E,182649.00,A,D*70
$GPRMC,182650.00,A,2617.12133,S,02804.24129,E,0.088,,140323,,,D*65
$GPVTG,,T,,M,0.088,N,0.164,K,D*25
$GPGGA,182650.00,2617.12133,S,02804.24129,E,2,04,6.03,1638.9,M,23.0,M,,0000*7D
$GPGSA,A,3,26,32,16,27,,,,,,,,,13.05,6.03,11.58*0A
$GPGSV,3,1,12,03,23,252,21,04,11,220,,16,51,297,43,22,65,052,34*73
$GPGSV,3,2,12,26,72,214,21,27,21,357,35,28,45,127,,29,19,130,*71
$GPGSV,3,3,12,31,52,150,,32,36,039,39,39,40,059,34,40,47,049,39*7A
$GPGLL,2617.12133,S,02804.24129,E,182650.00,A,D*7B
$GPRMC,182651.00,A,2617.12126,S,02804.24127,E,0.057,,140323,,,D*6C
$GPVTG,,T,,M,0.057,N,0.105,K,D*20
$GPGGA,182651.00,2617.12126,S,02804.24127,E,2,04,6.03,1638.9,M,23.0,M,,0000*76
$GPGSA,A,3,26,32,16,27,,,,,,,,,13.06,6.03,11.58*09
$GPGSV,3,1,12,03,23,252,22,04,11,220,,16,51,297,43,22,65,052,34*70
$GPGSV,3,2,12,26,72,214,20,27,21,357,35,28,45,127,,29,19,130,*70
$GPGSV,3,3,12,31,52,150,,32,36,039,39,39,40,059,35,40,47,049,39*7B
$GPGLL,2617.12126,S,02804.24127,E,182651.00,A,D*70
$GPRMC,182652.00,A,2617.12120,S,02804.24127,E,0.047,,140323,,,D*68
$GPVTG,,T,,M,0.047,N,0.087,K,D*2A
$GPGGA,182652.00,2617.12120,S,02804.24127,E,2,04,6.03,1638.9,M,23.0,M,,0000*73
$GPGSA,A,3,26,32,16,27,,,,,,,,,13.07,6.03,11.59*09
$GPGSV,3,1,12,03,23,252,22,04,11,220,,16,51,297,43,22,65,052,34*70
$GPGSV,3,2,12,26,72,214,20,27,21,357,35,28,45,127,,29,19,130,*70
$GPGSV,3,3,12,31,52,150,,32,36,039,39,39,40,059,35,40,47,049,39*7B
$GPGLL,2617.12120,S,02804.24127,E,182652.00,A,D*75
$GPRMC,182653.00,A,2617.12118,S,02804.24127,E,0.033,,140323,,,D*61
$GPVTG,,T,,M,0.033,N,0.060,K,D*20
$GPGGA,182653.00,2617.12118,S,02804.24127,E,2,04,6.03,1638.9,M,23.0,M,,0000*79
$GPGSA,A,3,26,32,16,27,,,,,,,,,13.07,6.03,11.60*03
$GPGSV,3,1,12,03,23,252,22,04,11,220,,16,51,297,44,22,65,052,34*77
$GPGSV,3,2,12,26,72,214,19,27,21,357,35,28,45,127,,29,19,130,*7A
$GPGSV,3,3,12,31,52,150,,32,36,039,39,39,40,059,35,40,47,049,39*7B
$GPGLL,2617.12118,S,02804.24127,E,182653.00,A,D*7F
$GPRMC,182654.00,A,2617.12117,S,02804.24127,E,0.019,,140323,,,D*61
$GPVTG,,T,,M,0.019,N,0.035,K,D*28
$GPGGA,182654.00,2617.12117,S,02804.24127,E,2,04,6.03,1639.0,M,23.0,M,,0000*79
$GPGSA,A,3,26,32,16,27,,,,,,,,,13.08,6.03,11.60*0C
$GPGSV,3,1,12,03,23,252,22,04,11,220,,16,51,297,43,22,65,052,34*70
$GPGSV,3,2,12,26,72,214,19,27,21,357,35,28,45,127,,29,19,130,*7A
$GPGSV,3,3,12,31,52,150,,32,36,039,40,39,40,059,35,40,47,049,39*75
$GPGLL,2617.12117,S,02804.24127,E,182654.00,A,D*77
$GPRMC,182655.00,A,2617.12118,S,02804.24127,E,0.119,,140323,,,D*6E
$GPVTG,,T,,M,0.119,N,0.220,K,D*2F
$GPGGA,182655.00,2617.12118,S,02804.24127,E,2,04,6.04,1638.9,M,23.0,M,,0000*78
$GPGSA,A,3,26,32,16,27,,,,,,,,,13.08,6.04,11.61*0A
$GPGSV,3,1,12,03,23,252,22,04,11,220,,16,51,297,43,22,65,052,34*70
$GPGSV,3,2,12,26,72,214,19,27,21,357,35,28,45,127,,29,19,130,*7A
$GPGSV,3,3,12,31,52,150,,32,36,039,40,39,40,059,34,40,47,049,39*74
$GPGLL,2617.12118,S,02804.24127,E,182655.00,A,D*79
$GPRMC,182656.00,A,2617.12122,S,02804.24129,E,0.101,,140323,,,D*63
$GPVTG,,T,,M,0.101,N,0.187,K,D*28
$GPGGA,182656.00,2617.12122,S,02804.24129,E,2,04,6.04,1638.9,M,23.0,M,,0000*7C
$GPGSA,A,3,26,32,16,27,,,,,,,,,13.09,6.04,11.61*0B
$GPGSV,3,1,12,03,23,252,22,04,11,220,,16,51,297,43,22,65,052,34*70
$GPGSV,3,2,12,26,72,214,18,27,21,357,35,28,45,127,,29,19,130,*7B
$GPGSV,3,3,12,31,52,150,,32,36,039,39,39,40,059,34,40,47,049,39*7A
$GPGLL,2617.12122,S,02804.24129,E,182656.00,A,D*7D
$GPRMC,182657.00,A,2617.12120,S,02804.24127,E,0.017,,140323,,,D*68
$GPVTG,,T,,M,0.017,N,0.031,K,D*22
$GPGGA,182657.00,2617.12120,S,02804.24127,E,2,04,6.04,1638.9,M,23.0,M,,0000*71
$GPGSA,A,3,26,32,16,27,,,,,,,,,13.10,6.04,11.62*00
$GPGSV,3,1,12,03,23,252,22,04,11,220,,16,51,297,42,22,65,052,33*76
$GPGSV,3,2,12,26,72,214,18,27,21,357,34,28,45,127,,29,19,130,*7A
$GPGSV,3,3,12,31,52,150,,32,36,039,39,39,40,059,34,40,47,049,39*7A
$GPGLL,2617.12120,S,02804.24127,E,182657.00,A,D*70
$GPRMC,182658.00,A,2617.12120,S,02804.24125,E,0.094,,140323,,,D*6E
$GPVTG,,T,,M,0.094,N,0.173,K,D*2E
$GPGGA,182658.00,2617.12120,S,02804.24125,E,2,04,6.04,1638.9,M,23.0,M,,0000*7C
$GPGSA,A,3,26,32,16,27,,,,,,,,,13.10,6.04,11.63*01
$GPGSV,3,1,12,03,23,252,22,04,11,220,,16,51,297,43,22,65,052,34*70
$GPGSV,3,2,12,26,72,214,17,27,21,357,34,28,45,127,,29,19,130,*75
$GPGSV,3,3,12,31,52,150,,32,36,039,39,39,40,059,34,40,47,049,39*7A
$GPGLL,2617.12120,S,02804.24125,E,182658.00,A,D*7D
$GPRMC,182659.00,A,2617.12121,S,02804.24124,E,0.128,,140323,,,D*69
$GPVTG,,T,,M,0.128,N,0.237,K,D*2B
$GPGGA,182659.00,2617.12121,S,02804.24124,E,2,04,6.04,1638.9,M,23.0,M,,0000*7D
$GPGSA,A,3,26,32,16,27,,,,,,,,,13.11,6.04,11.63*00
$GPGSV,3,1,12,03,23,252,23,04,11,220,24,16,51,297,43,22,65,052,34*77
$GPGSV,3,2,12,26,72,214,16,27,21,357,35,28,45,127,,29,19,130,*75
$GPGSV,3,3,12,31,52,150,,32,36,039,39,39,40,059,34,40,47,049,38*7B
$GPGLL,2617.12121,S,02804.24124,E,182659.00,A,D*7C
$GPRMC,182700.00,A,2617.12127,S,02804.24125,E,0.129,,140323,,,D*62
$GPVTG,,T,,M,0.129,N,0.240,K,D*2A
$GPGGA,182700.00,2617.12127,S,02804.24125,E,2,04,6.04,1638.9,M,23.0,M,,0000*77
$GPGSA,A,3,26,32,16,27,,,,,,,,,13.11,6.04,11.64*07
$GPGSV,3,1,12,03,23,252,23,04,11,220,,16,51,297,43,22,65,052,34*71
$GPGSV,3,2,12,26,72,214,16,27,21,357,35,28,45,127,,29,19,130,*75
$GPGSV,3,3,12,31,52,150,,32,36,039,39,39,40,059,35,40,47,049,39*7B
$GPGLL,2617.12127,S,02804.24125,E,182700.00,A,D*76
$GPRMC,182701.00,A,2617.12127,S,02804.24124,E,0.060,,140323,,,D*6E
$GPVTG,,T,,M,0.060,N,0.111,K,D*21
$GPGGA,182701.00,2617.12127,S,02804.24124,E,2,04,6.04,1638.9,M,23.0,M,,0000*77
$GPGSA,A,3,26,32,16,27,,,,,,,,,13.12,6.04,11.65*05
$GPGSV,3,1,12,03,23,252,22,04,11,220,,16,51,297,40,22,65,052,33*74
$GPGSV,3,2,12,26,72,214,15,27,21,357,32,28,45,127,,29,19,130,*71
$GPGSV,3,3,12,31,52,150,,32,36,039,37,39,40,059,34,40,47,049,36*7B
$GPGLL,2617.12127,S,02804.24124,E,182701.00,A,D*76
$GPRMC,182702.00,A,2617.12125,S,02804.24123,E,0.049,,140323,,,D*63
$GPVTG,,T,,M,0.049,N,0.091,K,D*23
$GPGGA,182702.00,2617.12125,S,02804.24123,E,2,04,6.04,1639.0,M,23.0,M,,0000*79
$GPGSA,A,3,26,32,16,27,,,,,,,,,13.13,6.04,11.65*04
$GPGSV,3,1,12,03,23,252,21,04,11,220,,16,52,296,40,22,65,052,32*74
$GPGSV,3,2,12,26,72,214,15,27,21,357,32,28,45,127,,29,19,130,*71
$GPGSV,3,3,12,31,52,150,,32,36,039,37,39,40,059,31,40,47,049,36*7E
$GPGLL,2617.12125,S,02804.24123,E,182702.00,A,D*70
$GPRMC,182703.00,A,2617.12126,S,02804.24123,E,0.012,,140323,,,D*6F
$GPVTG,,T,,M,0.012,N,0.023,K,D*24
$GPGGA,182703.00,2617.12126,S,02804.24123,E,2,04,6.05,1638.9,M,23.0,M,,0000*72
$GPGSA,A,3,26,32,16,27,,,,,,,,,13.13,6.05,11.66*06
$GPGSV,3,1,12,03,23,252,22,04,11,220,,16,52,296,44,22,65,052,33*72
$GPGSV,3,2,12,26,72,214,12,27,21,357,35,28,45,127,,29,19,130,*71
$GPGSV,3,3,12,31,52,150,,32,36,039,40,39,40,059,34,40,47,049,38*75
$GPGLL,2617.12126,S,02804.24123,E,182703.00,A,D*72
$GPRMC,182704.00,A,2617.12124,S,02804.24122,E,0.027,,140323,,,D*6D
$GPVTG,,T,,M,0.027,N,0.050,K,D*26
$GPGGA,182704.00,2617.12124,S,02804.24122,E,2,04,6.05,1639.0,M,23.0,M,,0000*7E
$GPGSA,A,3,26,32,16,27,,,,,,,,,13.14,6.05,11.67*00
$GPGSV,3,1,12,03,23,252,22,04,11,220,,16,52,296,44,22,65,052,34*75
$GPGSV,3,2,12,26,72,214,12,27,21,357,35,28,45,127,,29,19,130,*71
$GPGSV,3,3,12,31,52,150,,32,36,039,40,39,40,059,34,40,47,049,39*74
$GPGLL,2617.12124,S,02804.24122,E,182704.00,A,D*76
$GPRMC,182705.00,A,2617.12128,S,02804.24123,E,0.003,,140323,,,D*67
$GPVTG,,T,,M,0.003,N,0.005,K,D*20
$GPGGA,182705.00,2617.12128,S,02804.24123,E,2,04,6.05,1639.0,M,23.0,M,,0000*72
$GPGSA,A,3,26,32,16,27,,,,,,,,,13.15,6.05,11.67*01
$GPGSV,3,1,12,03,23,252,22,04,11,220,,16,52,296,43,22,65,052,34*72
$GPGSV,3,2,12,26,72,214,10,27,21,357,35,28,45,127,,29,19,130,*73
$GPGSV,3,3,12,31,52,150,,32,36,039,39,39,40,059,34,40,47,049,38*7B
$GPGLL,2617.12128,S,02804.24123,E,182705.00,A,D*7A
$GPRMC,182706.00,A,2617.12127,S,02804.24122,E,0.109,,140323,,,D*61
$GPVTG,,T,,M,0.109,N,0.202,K,D*2E
$GPGGA,182706.00,2617.12127,S,02804.24122,E,2,04,6.05,1639.0,M,23.0,M,,0000*7F
$GPGSA,A,3,26,32,16,27,,,,,,,,,13.15,6.05,11.68*0E
$GPGSV,3,1,12,03,23,252,22,04,11,220,,16,52,296,43,22,65,052,34*72
$GPGSV,3,2,12,26,72,214,12,27,21,357,35,28,45,127,,29,19,130,*71
$GPGSV,3,3,12,31,52,150,,32,36,039,40,39,40,059,34,40,47,049,38*75
$GPGLL,2617.12127,S,02804.24122,E,182706.00,A,D*77
$GPRMC,182707.00,A,2617.12136,S,02804.24125,E,0.047,,140323,,,D*6C
$GPVTG,,T,,M,0.047,N,0.087,K,D*2A
$GPGGA,182707.00,2617.12136,S,02804.24125,E,2,04,6.05,1638.9,M,23.0,M,,0000*71
$GPGSA,A,3,26,32,16,27,,,,,,,,,13.16,6.05,11.68*0D
$GPGSV,3,1,12,03,23,252,22,04,11,220,,16,52,296,43,22,65,052,34*72
$GPGSV,3,2,12,26,72,214,13,27,21,357,35,28,45,127,,29,19,130,*70
$GPGSV,3,3,12,31,52,150,,32,36,039,40,39,40,059,35,40,47,049,39*75
$GPGLL,2617.12136,S,02804.24125,E,182707.00,A,D*71
$GPRMC,182708.00,A,2617.12139,S,02804.24125,E,0.116,,140323,,,D*69
$GPVTG,,T,,M,0.116,N,0.215,K,D*26
$GPGGA,182708.00,2617.12139,S,02804.24125,E,2,04,6.05,1638.9,M,23.0,M,,0000*71
$GPGSA,A,3,26,32,16,27,,,,,,,,,13.17,6.05,11.69*0D
$GPGSV,3,1,12,03,23,252,22,04,11,220,,16,52,296,43,22,64,051,34*70
$GPGSV,3,2,12,26,72,214,12,27,21,357,35,28,45,127,,29,19,130,*71
$GPGSV,3,3,12,31,52,150,,32,36,039,40,39,40,059,35,40,47,049,39*75
$GPGLL,2617.12139,S,02804.24125,E,182708.00,A,D*71
$GPRMC,182709.00,A,2617.12145,S,02804.24127,E,0.171,,140323,,,D*60
$GPVTG,,T,,M,0.171,N,0.316,K,D*25
$GPGGA,182709.00,2617.12145,S,02804.24127,E,2,04,6.05,1638.8,M,23.0,M,,0000*78
$GPGSA,A,3,26,32,16,27,,,,,,,,,13.17,6.05,11.70*05
$GPGSV,3,1,12,03,23,252,23,04,11,220,,16,52,296,43,22,64,051,34*71
$GPGSV,3,2,12,26,72,214,12,27,21,357,35,28,45,127,,29,19,130,*71
$GPGSV,3,3,12,31,52,150,,32,36,039,40,39,40,059,34,40,47,049,38*75
$GPGLL,2617.12145,S,02804.24127,E,182709.00,A,D*79
$GPRMC,182710.00,A,2617.12151,S,02804.24129,E,0.032,,140323,,,D*65
$GPVTG,,T,,M,0.032,N,0.059,K,D*2B
$GPGGA,182710.00,2617.12151,S,02804.24129,E,2,04,6.06,1638.8,M,23.0,M,,0000*78
$GPGSA,A,3,26,32,16,27,,,,,,,,,13.18,6.06,11.70*09
$GPGSV,3,1,12,03,23,252,23,04,11,220,,16,52,296,43,22,64,051,34*71
$GPGSV,3,2,12,26,72,214,13,27,21,357,34,28,45,127,,29,19,130,*71
$GPGSV,3,3,12,31,52,150,,32,36,039,39,39,40,059,34,40,47,049,38*7B
$GPGLL,2617.12151,S,02804.24129,E,182710.00,A,D*7A
$GPRMC,182711.00,A,2617.12156,S,02804.24129,E,0.031,,140323,,,D*60
$GPVTG,,T,,M,0.031,N,0.056,K,D*27
$GPGGA,182711.00,2617.12156,S,02804.24129,E,2,04,6.06,1638.8,M,23.0,M,,0000*7E
$GPGSA,A,3,26,32,16,27,,,,,,,,,13.18,6.06,11.71*08
$GPGSV,3,1,12,03,23,252,22,04,11,220,,16,52,296,43,22,64,051,34*70
$GPGSV,3,2,12,26,72,214,13,27,21,357,34,28,45,127,,29,19,130,*71
$GPGSV,3,3,12,31,52,150,,32,36,039,40,39,40,059,34,40,47,049,38*75
$GPGLL,2617.12156,S,02804.24129,E,182711.00,A,D*7C
$GPRMC,182712.00,A,2617.12157,S,02804.24128,E,0.043,,140323,,,D*66
$GPVTG,,T,,M,0.043,N,0.079,K,D*2F
$GPGGA,182712.00,2617.12157,S,02804.24128,E,2,04,6.06,1638.8,M,23.0,M,,0000*7D
$GPGSA,A,3,26,32,16,27,,,,,,,,,13.19,6.06,11.72*0A
$GPGSV,3,1,12,03,23,252,22,04,11,220,,16,52,296,41,22,64,051,33*75
$GPGSV,3,2,12,26,72,213,13,27,21,357,34,28,45,127,,29,19,130,*76
$GPGSV,3,3,12,31,52,150,,32,36,039,38,39,40,059,34,40,47,049,38*7A
$GPGLL,2617.12157,S,02804.24128,E,182712.00,A,D*7F
$GPRMC,182713.00,A,2617.12158,S,02804.24127,E,0.034,,140323,,,D*67
$GPVTG,,T,,M,0.034,N,0.062,K,D*25
$GPGGA,182713.00,2617.12158,S,02804.24127,E,2,04,6.06,1638.8,M,23.0,M,,0000*7C
$GPGSA,A,3,26,32,16,27,,,,,,,,,13.20,6.06,11.72*00
$GPGSV,3,1,12,03,23,252,21,04,11,220,,16,52,296,42,22,64,051,29*7E
$GPGSV,3,2,12,26,72,213,14,27,21,357,30,28,45,127,,29,19,130,*75
$GPGSV,3,3,12,31,52,150,,32,36,039,38,39,40,059,34,40,47,049,38*7A
$GPGLL,2617.12158,S,02804.24127,E,182713.00,A,D*7E
$GPRMC,182714.00,A,2617.12158,S,02804.24126,E,0.049,,140323,,,D*6B
$GPVTG,,T,,M,0.049,N,0.090,K,D*22
$GPGGA,182714.00,2617.12158,S,02804.24126,E,2,04,6.06,1638.8,M,23.0,M,,0000*7A
$GPGSA,A,3,26,32,16,27,,,,,,,,,13.20,6.06,11.73*01
$GPGSV,3,1,12,03,23,252,20,04,11,220,,16,52,296,44,22,64,051,35*74
$GPGSV,3,2,12,26,72,213,12,27,21,357,35,28,45,127,,29,19,130,*76
$GPGSV,3,3,12,31,52,150,,32,36,039,41,39,40,059,35,40,47,049,39*74
$GPGLL,2617.12158,S,02804.24126,E,182714.00,A,D*78
$GPRMC,182715.00,A,2617.12163,S,02804.24128,E,0.101,,140323,,,D*61
$GPVTG,,T,,M,0.101,N,0.187,K,D*28
$GPGGA,182715.00,2617.12163,S,02804.24128,E,2,04,6.06,1638.8,M,23.0,M,,0000*7D
$GPGSA,A,3,26,32,16,27,,,,,,,,,13.21,6.06,11.74*07
$GPGSV,3,1,12,03,23,252,21,04,11,220,,16,52,296,43,22,64,051,35*72
$GPGSV,3,2,12,26,72,213,14,27,21,357,35,28,45,127,,29,19,131,*71
$GPGSV,3,3,12,31,52,150,,32,36,039,40,39,40,059,35,40,47,049,39*75
$GPGLL,2617.12163,S,02804.24128,E,182715.00,A,D*7F
$GPRMC,182716.00,A,2617.12165,S,02804.24127,E,0.013,,140323,,,D*69
$GPVTG,,T,,M,0.013,N,0.024,K,D*22
$GPGGA,182716.00,2617.12165,S,02804.24127,E,2,04,6.06,1638.7,M,23.0,M,,0000*78
$GPGSA,A,3,26,32,16,27,,,,,,,,,13.22,6.06,11.74*04
$GPGSV,3,1,12,03,23,252,21,04,11,220,,16,52,296,43,22,64,051,34*73
$GPGSV,3,2,12,26,72,213,14,27,21,357,34,28,45,127,,29,19,131,*70
$GPGSV,3,3,12,31,52,150,,32,36,039,40,39,40,059,34,40,47,049,39*74
$GPGLL,2617.12165,S,02804.24127,E,182716.00,A,D*75
$GPRMC,182717.00,A,2617.12160,S,02804.24122,E,0.056,,140323,,,D*69
$GPVTG,,T,,M,0.056,N,0.104,K,D*20
$GPGGA,182717.00,2617.12160,S,02804.24122,E,2,04,6.06,1638.7,M,23.0,M,,0000*79
$GPGSA,A,3,26,32,16,27,,,,,,,,,13.22,6.06,11.75*05
$GPGSV,3,1,12,03,23,252,20,04,11,220,,16,52,296,44,22,64,051,34*75
$GPGSV,3,2,12,26,72,213,14,27,21,357,36,28,45,127,,29,19,131,*72
$GPGSV,3,3,12,31,52,149,,32,36,039,41,39,40,059,34,40,47,049,39*7D
$GPGLL,2617.12160,S,02804.24122,E,182717.00,A,D*74
$GPRMC,182718.00,A,2617.12163,S,02804.24120,E,0.020,,140323,,,D*66
$GPVTG,,T,,M,0.020,N,0.037,K,D*20
$GPGGA,182718.00,2617.12163,S,02804.24120,E,2,04,6.07,1638.6,M,23.0,M,,0000*77
$GPGSA,A,3,26,32,16,27,,,,,,,,,13.23,6.07,11.76*06
$GPGSV,3,1,12,03,23,252,19,04,11,220,,16,52,296,42,22,64,051,33*7E
$GPGSV,3,2,12,26,72,213,11,27,21,357,33,28,45,127,,29,19,131,*72
$GPGSV,3,3,12,31,52,149,,32,35,039,39,39,40,059,33,40,47,049,37*78
$GPGLL,2617.12163,S,02804.24120,E,182718.00,A,D*7A
$GPRMC,182719.00,A,2617.12167,S,02804.24120,E,0.070,,140323,,,D*66
$GPVTG,,T,,M,0.070,N,0.130,K,D*23
$GPGGA,182719.00,2617.12167,S,02804.24120,E,2,04,6.07,1638.6,M,23.0,M,,0000*72
$GPGSA,A,3,26,32,16,27,,,,,,,,,13.24,6.07,11.76*01
$GPGSV,3,1,12,03,23,252,19,04,11,220,,16,52,296,42,22,64,051,34*79
$GPGSV,3,2,12,26,72,213,12,27,21,357,33,28,45,127,,29,19,131,*71
$GPGSV,3,3,12,31,52,149,,32,35,039,39,39,40,059,35,40,47,049,39*70
$GPGLL,2617.12167,S,02804.24120,E,182719.00,A,D*7F
$GPRMC,182720.00,A,2617.12173,S,02804.24119,E,0.081,,140323,,,D*6D
$GPVTG,,T,,M,0.081,N,0.150,K,D*2B
$GPGGA,182720.00,2617.12173,S,02804.24119,E,2,04,6.07,1638.5,M,23.0,M,,0000*74
$GPGSA,A,3,26,32,16,27,,,,,,,,,13.24,6.07,11.77*00
$GPGSV,3,1,12,03,23,252,19,04,11,220,,16,52,296,41,22,64,051,33*7D
$GPGSV,3,2,12,26,72,213,12,27,21,357,33,28,45,127,,29,19,131,*71
$GPGSV,3,3,12,31,52,149,,32,35,039,39,39,40,059,34,40,47,049,37*7F
$GPGLL,2617.12173,S,02804.24119,E,182720.00,A,D*7A
$GPRMC,182721.00,A,2617.12175,S,02804.24118,E,0.048,,140323,,,D*6E
$GPVTG,,T,,M,0.048,N,0.089,K,D*2B
$GPGGA,182721.00,2617.12175,S,02804.24118,E,2,04,6.07,1638.4,M,23.0,M,,0000*73
$GPGSA,A,3,26,32,16,27,,,,,,,,,13.25,6.07,11.78*0E
$GPGSV,3,1,12,03,23,252,18,04,11,220,,16,52,296,36,22,64,051,29*77
$GPGSV,3,2,12,26,72,213,12,27,21,357,27,28,45,127,,29,19,131,*74
$GPGSV,3,3,12,31,52,149,,32,35,039,34,39,40,059,29,40,47,049,32*7B
$GPGLL,2617.12175,S,02804.24118,E,182721.00,A,D*7C
$GPRMC,182722.00,A,2617.12164,S,02804.24112,E,0.073,,140323,,,D*6F
$GPVTG,,T,,M,0.073,N,0.135,K,D*25
$GPGGA,182722.00,2617.12164,S,02804.24112,E,2,04,6.07,1638.4,M,23.0,M,,0000*7A
$GPGSA,A,3,26,32,16,27,,,,,,,,,13.25,6.07,11.78*0E
$GPGSV,3,1,12,03,23,252,17,04,11,220,,16,52,296,42,22,64,051,33*70
$GPGSV,3,2,12,26,72,213,11,27,21,357,33,28,45,127,,29,19,131,*72
$GPGSV,3,3,12,31,52,149,,32,35,039,39,39,40,059,34,40,47,049,38*70
$GPGLL,2617.12164,S,02804.24112,E,182722.00,A,D*75
$GPRMC,182723.00,A,2617.12162,S,02804.24108,E,0.076,,140323,,,D*66
$GPVTG,,T,,M,0.076,N,0.141,K,D*23
$GPGGA,182723.00,2617.12162,S,02804.24108,E,2,03,3.00,1638.3,M,23.0,M,,0000*74
$GPGSA,A,2,32,16,27,,,,,,,,,,3.17,3.00,1.00*07
$GPGSV,3,1,12,03,23,252,17,04,11,220,,16,52,296,41,22,64,051,33*73
$GPGSV,3,2,12,26,72,213,09,27,21,357,33,28,45,127,,29,19,131,*7B
$GPGSV,3,3,12,31,52,149,,32,35,039,39,39,40,059,33,40,47,049,38*77
$GPGLL,2617.12162,S,02804.24108,E,182723.00,A,D*79
$GPRMC,182724.00,A,2617.12158,S,02804.24104,E,0.067,,140323,,,D*64
$GPVTG,,T,,M,0.067,N,0.124,K,D*20
$GPGGA,182724.00,2617.12158,S,02804.24104,E,2,03,3.00,1638.3,M,23.0,M,,0000*76
$GPGSA,A,2,32,16,27,,,,,,,,,,3.17,3.00,1.00*07
$GPGSV,3,1,12,03,23,252,18,04,11,220,,16,52,296,42,22,64,051,33*7F
$GPGSV,3,2,12,26,72,213,09,27,21,357,33,28,45,127,,29,19,131,*7B
$GPGSV,3,3,12,31,52,149,,32,35,039,39,39,40,059,33,40,47,049,37*78
$GPGLL,2617.12158,S,02804.24104,E,182724.00,A,D*7B
$GPRMC,182725.00,A,2617.12158,S,02804.24102,E,0.091,,140323,,,D*6A
$GPVTG,,T,,M,0.091,N,0.169,K,D*20
$GPGGA,182725.00,2617.12158,S,02804.24102,E,2,03,3.00,1638.3,M,23.0,M,,0000*71
$GPGSA,A,2,32,16,27,,,,,,,,,,3.17,3.00,1.00*07
$GPGSV,3,1,12,03,23,252,18,04,11,220,,16,52,296,42,22,64,051,33*7F
$GPGSV,3,2,12,26,72,213,09,27,21,357,32,28,45,127,,29,19,131,*7A
$GPGSV,3,3,12,31,52,149,,32,35,039,39,39,40,059,33,40,47,049,37*78
$GPGLL,2617.12158,S,02804.24102,E,182725.00,A,D*7C
$GPRMC,182726.00,A,2617.12156,S,02804.24099,E,0.032,,140323,,,D*6D
$GPVTG,,T,,M,0.032,N,0.059,K,D*2B
$GPGGA,182726.00,2617.12156,S,02804.24099,E,2,04,6.08,1638.3,M,23.0,M,,0000*75
$GPGSA,A,3,26,32,16,27,,,,,,,,,13.28,6.08,11.81*0A
$GPGSV,3,1,12,03,23,252,19,04,11,220,,16,52,296,42,22,64,051,33*7E
$GPGSV,3,2,12,26,72,213,10,27,21,357,33,28,45,127,,29,19,131,*73
$GPGSV,3,3,12,31,52,149,,32,35,039,39,39,40,059,33,40,47,049,38*77
$GPGLL,2617.12156,S,02804.24099,E,182726.00,A,D*72
$GPRMC,182727.00,A,2617.12153,S,02804.24096,E,0.042,,140323,,,D*61
$GPVTG,,T,,M,0.042,N,0.077,K,D*20
$GPGGA,182727.00,2617.12153,S,02804.24096,E,2,04,6.08,1638.2,M,23.0,M,,0000*7F
$GPGSA,A,3,26,32,16,27,,,,,,,,,13.29,6.08,11.82*08
$GPGSV,3,1,12,03,23,252,19,04,11,220,,16,52,296,42,22,64,051,33*7E
$GPGSV,3,2,12,26,72,213,11,27,21,357,33,28,45,127,12,29,19,131,*71
$GPGSV,3,3,12,31,52,149,,32,35,039,40,39,40,059,33,40,47,049,37*76
$GPGLL,2617.12153,S,02804.24096,E,182727.00,A,D*79
$GPRMC,182728.00,A,2617.12160,S,02804.24096,E,0.022,,140323,,,D*68
$GPVTG,,T,,M,0.022,N,0.041,K,D*23
$GPGGA,182728.00,2617.12160,S,02804.24096,E,2,04,6.08,1638.2,M,23.0,M,,0000*70
$GPGSA,A,3,26,32,16,27,,,,,,,,,13.29,6.08,11.82*08
$GPGSV,3,1,12,03,23,252,19,04,11,220,,16,52,296,41,22,64,051,33*7D
$GPGSV,3,2,12,26,72,213,11,27,21,357,33,28,45,127,10,29,19,131,*73
$GPGSV,3,3,12,31,52,149,,32,35,039,39,39,40,059,33,40,47,049,37*78
$GPGLL,2617.12160,S,02804.24096,E,182728.00,A,D*76
$GPRMC,182729.00,A,2617.12169,S,02804.24096,E,0.056,,140323,,,D*63
$GPVTG,,T,,M,0.056,N,0.105,K,D*21
$GPGGA,182729.00,2617.12169,S,02804.24096,E,2,04,6.08,1638.2,M,23.0,M,,0000*78
$GPGSA,A,3,26,32,16,27,,,,,,,,,13.30,6.08,11.83*01
$GPGSV,3,1,12,03,23,252,19,04,11,220,,16,52,296,43,22,64,051,33*7F
$GPGSV,3,2,12,26,72,213,11,27,21,357,33,28,45,127,08,29,19,131,*7A
$GPGSV,3,3,12,31,52,149,,32,35,039,39,39,40,059,33,40,47,049,38*77
$GPGLL,2617.12169,S,02804.24096,E,182729.00,A,D*7E
$GPRMC,182730.00,A,2617.12172,S,02804.24095,E,0.084,,140323,,,D*6D
$GPVTG,,T,,M,0.084,N,0.155,K,D*2B
$GPGGA,182730.00,2617.12172,S,02804.24095,E,2,04,6.08,1638.1,M,23.0,M,,0000*7A
$GPGSA,A,3,26,32,16,27,,,,,,,,,13.31,6.08,11.84*07
$GPGSV,3,1,12,03,23,252,20,04,11,220,,16,52,296,42,22,64,051,33*74
$GPGSV,3,2,12,26,72,213,11,27,21,357,33,28,45,127,08,29,19,131,*7A
$GPGSV,3,3,12,31,52,149,,32,35,039,40,39,40,059,33,40,47,049,36*77
$GPGLL,2617.12172,S,02804.24095,E,182730.00,A,D*7F
$GPRMC,182731.00,A,2617.12181,S,02804.24097,E,0.176,,140323,,,D*6E
$GPVTG,,T,,M,0.176,N,0.326,K,D*21
$GPGGA,182731.00,2617.12181,S,02804.24097,E,2,04,6.08,1638.1,M,23.0,M,,0000*75
$GPGSA,A,3,26,32,16,27,,,,,,,,,13.31,6.08,11.84*07
$GPGSV,3,1,12,03,23,252,19,04,11,220,,16,52,296,40,22,64,051,33*7C
$GPGSV,3,2,12,26,72,213,11,27,21,357,34,28,45,127,,29,19,131,*75
$GPGSV,3,3,12,31,52,149,,32,35,039,38,39,40,059,33,40,47,049,37*79
$GPGLL,2617.12181,S,02804.24097,E,182731.00,A,D*70
$GPRMC,182732.00,A,2617.12189,S,02804.24099,E,0.134,,140323,,,D*6D
$GPVTG,,T,,M,0.134,N,0.249,K,D*2F
$GPGGA,182732.00,2617.12189,S,02804.24099,E,2,04,6.09,1638.0,M,23.0,M,,0000*70
$GPGSA,A,3,26,32,16,27,,,,,,,,,13.32,6.09,11.85*04
$GPGSV,3,1,12,03,23,252,19,04,11,220,,16,52,296,42,22,64,051,33*7E
$GPGSV,3,2,12,26,72,213,10,27,21,357,33,28,45,127,,29,19,131,*73
$GPGSV,3,3,12,31,52,149,,32,35,039,39,39,40,059,34,40,47,049,38*70
$GPGLL,2617.12189,S,02804.24099,E,182732.00,A,D*75
$GPRMC,182733.00,A,2617.12197,S,02804.24100,E,0.097,,140323,,,D*6A
$GPVTG,,T,,M,0.097,N,0.179,K,D*27
$GPGGA,182733.00,2617.12197,S,02804.24100,E,2,04,6.09,1638.0,M,23.0,M,,0000*7F
$GPGSA,A,3,26,32,16,27,,,,,,,,,13.33,6.09,11.86*06
$GPGSV,3,1,12,03,23,252,19,04,11,220,,16,52,296,42,22,64,051,33*7E
$GPGSV,3,2,12,26,72,213,10,27,21,357,33,28,45,127,,29,19,131,*73
$GPGSV,3,3,12,31,52,149,,32,35,039,39,39,40,059,33,40,47,049,38*77
$GPGLL,2617.12197,S,02804.24100,E,182733.00,A,D*7A
$GPRMC,182734.00,A,2617.12203,S,02804.24099,E,0.076,,140323,,,D*6D
$GPVTG,,T,,M,0.076,N,0.140,K,D*22
$GPGGA,182734.00,2617.12203,S,02804.24099,E,2,04,6.09,1637.9,M,23.0,M,,0000*71
$GPGSA,A,3,26,32,16,27,,,,,,,,,13.33,6.09,11.86*06
$GPGSV,3,1,12,03,23,252,19,04,11,220,,16,52,296,42,22,64,051,33*7E
$GPGSV,3,2,12,26,72,213,10,27,21,357,33,28,45,127,,29,19,131,*73
$GPGSV,3,3,12,31,52,149,,32,35,039,39,39,40,059,33,40,47,049,38*77
$GPGLL,2617.12203,S,02804.24099,E,182734.00,A,D*72
$GPRMC,182735.00,A,2617.12213,S,02804.24102,E,0.055,,140323,,,D*6F
$GPVTG,,T,,M,0.055,N,0.102,K,D*25
$GPGGA,182735.00,2617.12213,S,02804.24102,E,2,04,6.09,1637.8,M,23.0,M,,0000*73
$GPGSA,A,3,26,32,16,27,,,,,,,,,13.34,6.09,11.87*00
$GPGSV,3,1,12,03,23,253,19,04,11,220,,16,52,296,42,22,64,051,33*7F
$GPGSV,3,2,12,26,72,213,10,27,21,357,33,28,45,127,,29,19,131,*73
$GPGSV,3,3,12,31,52,149,,32,35,039,39,39,40,059,33,40,47,049,37*78
$GPGLL,2617.12213,S,02804.24102,E,182735.00,A,D*71
$GPRMC,182736.00,A,2617.12226,S,02804.24106,E,0.169,,140323,,,D*60
$GPVTG,,T,,M,0.169,N,0.312,K,D*28
$GPGGA,182736.00,2617.12226,S,02804.24106,E,2,04,6.09,1637.8,M,23.0,M,,0000*72
$GPGSA,A,3,26,32,16,27,,,,,,,,,13.35,6.09,11.88*0E
$GPGSV,3,1,12,03,23,253,19,04,11,220,,16,52,296,42,22,64,051,33*7F
$GPGSV,3,2,12,26,72,213,10,27,21,357,33,28,45,127,,29,19,131,*73
$GPGSV,3,3,12,31,52,149,,32,35,039,39,39,40,059,34,40,47,049,38*70
$GPGLL,2617.12226,S,02804.24106,E,182736.00,A,D*70
$GPRMC,182737.00,A,2617.12232,S,02804.24106,E,0.019,,140323,,,D*62
$GPVTG,,T,,M,0.019,N,0.035,K,D*28
$GPGGA,182737.00,2617.12232,S,02804.24106,E,2,04,6.09,1637.7,M,23.0,M,,0000*79
$GPGSA,A,3,26,32,16,27,,,,,,,,,13.35,6.09,11.88*0E
$GPGSV,3,1,12,03,23,253,19,04,11,220,,16,52,296,41,22,64,051,33*7C
$GPGSV,3,2,12,26,72,213,10,27,21,357,33,28,45,127,,29,19,131,*73
$GPGSV,3,3,12,31,52,149,,32,35,039,39,39,40,059,33,40,47,049,38*77
$GPGLL,2617.12232,S,02804.24106,E,182737.00,A,D*74
$GPRMC,182738.00,A,2617.12238,S,02804.24107,E,0.115,,140323,,,D*6B
$GPVTG,,T,,M,0.115,N,0.213,K,D*23
$GPGGA,182738.00,2617.12238,S,02804.24107,E,2,04,6.09,1637.7,M,23.0,M,,0000*7D
$GPGSA,A,3,26,32,16,27,,,,,,,,,13.36,6.09,11.89*0C
$GPGSV,3,1,12,03,23,253,19,04,11,220,,16,52,296,42,22,64,051,33*7F
$GPGSV,3,2,12,26,72,213,08,27,21,357,33,28,45,127,,29,19,131,*7A
$GPGSV,3,3,12,31,52,149,,32,35,039,39,39,40,059,33,40,47,049,37*78
$GPGLL,2617.12238,S,02804.24107,E,182738.00,A,D*70
$GPRMC,182739.00,A,2617.12242,S,02804.24108,E,0.032,,140323,,,D*6C
$GPVTG,,T,,M,0.032,N,0.060,K,D*21
$GPGGA,182739.00,2617.12242,S,02804.24108,E,2,04,6.10,1637.6,M,23.0,M,,0000*77
$GPGSA,A,3,26,32,16,27,,,,,,,,,13.37,6.10,11.90*0D
$GPGSV,3,1,12,03,23,253,19,04,11,220,,16,52,296,42,22,64,051,33*7F
$GPGSV,3,2,12,26,72,213,08,27,21,357,33,28,45,127,,29,19,131,*7A
$GPGSV,3,3,12,31,52,149,,32,35,039,39,39,40,059,33,40,47,049,37*78
$GPGLL,2617.12242,S,02804.24108,E,182739.00,A,D*73
$GPRMC,182740.00,A,2617.12243,S,02804.24109,E,0.158,,140323,,,D*6F
$GPVTG,,T,,M,0.158,N,0.293,K,D*22
$GPGGA,182740.00,2617.12243,S,02804.24109,E,2,03,3.01,1637.6,M,23.0,M,,0000*7B
$GPGSA,A,2,32,16,27,,,,,,,,,,3.17,3.01,1.00*06
$GPGSV,3,1,12,03,23,253,19,04,11,220,,16,52,296,41,22,64,051,33*7C
$GPGSV,3,2,12,26,72,213,08,27,21,357,33,28,45,127,,29,19,131,*7A
$GPGSV,3,3,12,31,52,149,,32,35,039,39,39,40,059,33,40,47,049,38*77
$GPGLL,2617.12243,S,02804.24109,E,182740.00,A,D*7D
$GPRMC,182741.00,A,2617.12249,S,02804.24110,E,0.051,,140323,,,D*64
$GPVTG,,T,,M,0.051,N,0.094,K,D*2F
$GPGGA,182741.00,2617.12249,S,02804.24110,E,2,03,3.01,1637.6,M,23.0,M,,0000*78
$GPGSA,A,2,32,16,27,,,,,,,,,,3.17,3.01,1.00*06
$GPGSV,3,1,12,03,23,253,19,04,11,220,,16,52,296,41,22,64,051,33*7C
$GPGSV,3,2,12,26,72,213,08,27,21,357,33,28,45,127,,29,19,131,*7A
$GPGSV,3,3,12,31,52,149,,32,35,039,39,39,40,059,33,40,47,049,37*78
$GPGLL,2617.12249,S,02804.24110,E,182741.00,A,D*7E
$GPRMC,182742.00,A,2617.12246,S,02804.24108,E,0.009,,140323,,,D*6C
$GPVTG,,T,,M,0.009,N,0.016,K,D*28
$GPGGA,182742.00,2617.12246,S,02804.24108,E,2,03,3.01,1637.6,M,23.0,M,,0000*7D
$GPGSA,A,2,32,16,27,,,,,,,,,,3.17,3.01,1.00*06
$GPGSV,3,1,12,03,23,253,19,04,11,220,,16,52,296,41,22,64,051,33*7C
$GPGSV,3,2,12,26,72,213,08,27,21,357,33,28,45,127,,29,19,131,*7A
$GPGSV,3,3,12,31,52,149,,32,35,039,39,39,40,059,33,40,47,049,37*78
$GPGLL,2617.12246,S,02804.24108,E,182742.00,A,D*7B
$GPRMC,182743.00,A,2617.12249,S,02804.24108,E,0.019,,140323,,,D*63
$GPVTG,,T,,M,0.019,N,0.035,K,D*28
$GPGGA,182743.00,2617.12249,S,02804.24108,E,2,03,3.01,1637.6,M,23.0,M,,0000*73
$GPGSA,A,2,32,16,27,,,,,,,,,,3.17,3.01,1.00*06
$GPGSV,3,1,12,03,23,253,20,04,11,220,,16,52,296,42,22,64,051,33*75
$GPGSV,3,2,12,26,72,213,08,27,21,357,33,28,45,127,,29,19,131,*7A
$GPGSV,3,3,12,31,52,149,,32,35,039,39,39,40,059,33,40,47,049,37*78
$GPGLL,2617.12249,S,02804.24108,E,182743.00,A,D*75
$GPRMC,182744.00,A,2617.12246,S,02804.24106,E,0.040,,140323,,,D*69
$GPVTG,,T,,M,0.040,N,0.073,K,D*26
$GPGGA,182744.00,2617.12246,S,02804.24106,E,2,03,3.01,1637.6,M,23.0,M,,0000*75
$GPGSA,A,2,32,16,27,,,,,,,,,,3.17,3.01,1.00*06
$GPGSV,3,1,12,03,23,253,19,04,11,220,,16,52,296,41,22,64,051,33*7C
$GPGSV,3,2,12,26,72,213,06,27,21,357,33,28,45,127,,29,19,131,*74
$GPGSV,3,3,12,31,52,149,,32,35,039,38,39,40,059,33,40,47,049,37*79
$GPGLL,2617.12246,S,02804.24106,E,182744.00,A,D*73
$GPRMC,182745.00,A,2617.12250,S,02804.24107,E,0.147,,140323,,,D*68
$GPVTG,,T,,M,0.147,N,0.273,K,D*22
$GPGGA,182745.00,2617.12250,S,02804.24107,E,2,03,3.01,1637.6,M,23.0,M,,0000*72
$GPGSA,A,2,32,16,27,,,,,,,,,,3.17,3.01,1.00*06
$GPGSV,3,1,12,03,23,253,20,04,11,220,,16,52,296,42,22,64,051,33*75
$GPGSV,3,2,12,26,72,213,06,27,21,357,33,28,45,127,,29,19,131,*74
$GPGSV,3,3,12,31,52,149,,32,35,039,39,39,40,059,33,40,47,049,37*78
$GPGLL,2617.12250,S,02804.24107,E,182745.00,A,D*74
$GPRMC,182746.00,A,2617.12251,S,02804.24106,E,0.033,,140323,,,D*69
$GPVTG,,T,,M,0.033,N,0.060,K,D*20
$GPGGA,182746.00,2617.12251,S,02804.24106,E,2,03,3.01,1637.6,M,23.0,M,,0000*71
$GPGSA,A,2,32,16,27,,,,,,,,,,3.17,3.01,1.00*06
$GPGSV,3,1,12,03,23,253,20,04,11,220,,16,52,296,42,22,64,051,33*75
$GPGSV,3,2,12,26,72,213,06,27,21,357,34,28,45,127,,29,19,131,*73
$GPGSV,3,3,12,31,52,149,,32,35,039,40,39,40,059,33,40,47,049,37*76
$GPGLL,2617.12251,S,02804.24106,E,182746.00,A,D*77
$GPRMC,182747.00,A,2617.12251,S,02804.24105,E,0.074,,140323,,,D*68
$GPVTG,,T,,M,0.074,N,0.137,K,D*20
$GPGGA,182747.00,2617.12251,S,02804.24105,E,2,03,3.01,1637.6,M,23.0,M,,0000*73
$GPGSA,A,2,32,16,27,,,,,,,,,,3.17,3.01,1.00*06
$GPGSV,3,1,12,03,23,253,20,04,11,220,,16,52,296,43,22,64,051,34*73
$GPGSV,3,2,12,26,72,213,06,27,21,357,34,28,45,127,,29,19,131,*73
$GPGSV,3,3,12,31,52,149,,32,35,039,40,39,40,059,34,40,47,049,38*7E
$GPGLL,2617.12251,S,02804.24105,E,182747.00,A,D*75
$GPRMC,182748.00,A,2617.12254,S,02804.24106,E,0.049,,140323,,,D*6F
$GPVTG,,T,,M,0.049,N,0.090,K,D*22
$GPGGA,182748.00,2617.12254,S,02804.24106,E,2,03,3.01,1637.6,M,23.0,M,,0000*7A
$GPGSA,A,2,32,16,27,,,,,,,,,,3.17,3.01,1.00*06
$GPGSV,3,1,12,03,23,253,20,04,11,220,,16,52,296,41,22,64,051,33*76
$GPGSV,3,2,12,26,72,213,06,27,21,357,33,28,45,127,,29,19,131,*74
$GPGSV,3,3,12,31,52,149,,32,35,039,38,39,40,059,33,40,47,049,36*78
$GPGLL,2617.12254,S,02804.24106,E,182748.00,A,D*7C
$GPRMC,182749.00,A,2617.12252,S,02804.24105,E,0.082,,140323,,,D*6C
$GPVTG,,T,,M,0.082,N,0.152,K,D*2A
$GPGGA,182749.00,2617.12252,S,02804.24105,E,2,03,3.01,1637.6,M,23.0,M,,0000*7E
$GPGSA,A,2,32,16,27,,,,,,,,,,3.17,3.01,1.00*06
$GPGSV,3,1,12,03,23,253,21,04,11,220,,16,52,296,41,22,64,051,33*77
$GPGSV,3,2,12,26,72,213,,27,21,357,34,28,45,127,,29,19,131,*75
$GPGSV,3,3,12,31,52,149,,32,35,039,39,39,40,059,33,40,47,049,36*79
$GPGLL,2617.12252,S,02804.24105,E,182749.00,A,D*78
$GPRMC,182750.00,A,2617.12254,S,02804.24106,E,0.080,,140323,,,D*63
$GPVTG,,T,,M,0.080,N,0.149,K,D*22
$GPGGA,182750.00,2617.12254,S,02804.24106,E,2,03,3.01,1637.6,M,23.0,M,,0000*73
$GPGSA,A,2,32,16,27,,,,,,,,,,3.17,3.01,1.00*06
$GPGSV,3,1,12,03,23,253,20,04,11,220,,16,52,296,42,22,64,051,33*75
$GPGSV,3,2,12,26,72,213,,27,21,357,33,28,45,127,,29,19,131,*72
$GPGSV,3,3,12,31,52,149,,32,35,039,39,39,40,059,33,40,47,049,37*78
$GPGLL,2617.12254,S,02804.24106,E,182750.00,A,D*75
$GPRMC,182751.00,A,2617.12253,S,02804.24105,E,0.013,,140323,,,D*6C
$GPVTG,,T,,M,0.013,N,0.025,K,D*23
$GPGGA,182751.00,2617.12253,S,02804.24105,E,2,03,3.01,1637.5,M,23.0,M,,0000*75
$GPGSA,A,2,32,16,27,,,,,,,,,,3.17,3.01,1.00*06
$GPGSV,3,1,12,03,23,253,20,04,11,220,,16,52,296,42,22,64,051,33*75
$GPGSV,3,2,12,26,72,213,,27,21,357,34,28,45,127,,29,19,131,20*77
$GPGSV,3,3,12,31,52,149,,32,35,039,39,39,40,059,33,40,47,049,38*77
$GPGLL,2617.12253,S,02804.24105,E,182751.00,A,D*70
$GPRMC,182752.00,A,2617.12255,S,02804.24106,E,0.082,,140323,,,D*62
$GPVTG,,T,,M,0.082,N,0.152,K,D*2A
$GPGGA,182752.00,2617.12255,S,02804.24106,E,2,03,3.01,1637.5,M,23.0,M,,0000*73
$GPGSA,A,2,32,16,27,,,,,,,,,,3.17,3.01,1.00*06
$GPGSV,3,1,12,03,23,253,21,04,11,220,,16,52,296,42,22,64,051,33*74
$GPGSV,3,2,12,26,72,213,,27,21,357,34,28,45,127,,29,19,131,17*73
$GPGSV,3,3,12,31,52,149,,32,35,039,39,39,40,059,34,40,47,049,38*70
$GPGLL,2617.12255,S,02804.24106,E,182752.00,A,D*76
$GPRMC,182753.00,A,2617.12255,S,02804.24105,E,0.021,,140323,,,D*69
$GPVTG,,T,,M,0.021,N,0.040,K,D*21
$GPGGA,182753.00,2617.12255,S,02804.24105,E,2,03,3.01,1637.7,M,23.0,M,,0000*73
$GPGSA,A,2,32,16,27,,,,,,,,,,3.17,3.01,1.00*06
$GPGSV,3,1,12,03,23,253,20,04,11,220,,16,52,296,42,22,64,051,33*75
$GPGSV,3,2,12,26,72,213,,27,21,357,33,28,45,127,,29,19,131,12*71
$GPGSV,3,3,12,31,52,149,,32,35,039,39,39,40,059,33,40,47,049,36*79
$GPGLL,2617.12255,S,02804.24105,E,182753.00,A,D*74
$GPRMC,182754.00,A,2617.12247,S,02804.24101,E,0.030,,140323,,,D*69
$GPVTG,,T,,M,0.030,N,0.056,K,D*26
$GPGGA,182754.00,2617.12247,S,02804.24101,E,2,03,3.01,1637.6,M,23.0,M,,0000*72
$GPGSA,A,2,32,16,27,,,,,,,,,,3.17,3.01,1.00*06
$GPGSV,3,1,12,03,23,253,21,04,11,220,,16,52,296,42,22,64,051,33*74
$GPGSV,3,2,12,26,72,213,,27,21,357,33,28,45,127,,29,19,131,*72
$GPGSV,3,3,12,31,52,149,,32,35,039,39,39,40,059,33,40,47,049,37*78
$GPGLL,2617.12247,S,02804.24101,E,182754.00,A,D*74
$GPRMC,182755.00,A,2617.12247,S,02804.24100,E,0.020,,140323,,,D*68
$GPVTG,,T,,M,0.020,N,0.037,K,D*20
$GPGGA,182755.00,2617.12247,S,02804.24100,E,2,03,3.01,1637.6,M,23.0,M,,0000*72
$GPGSA,A,2,32,16,27,,,,,,,,,,3.17,3.01,1.00*06
$GPGSV,3,1,12,03,23,253,21,04,11,220,,16,52,296,43,22,64,051,33*75
$GPGSV,3,2,12,26,72,213,,27,21,357,34,28,45,127,,29,19,131,*75
$GPGSV,3,3,12,31,52,149,,32,35,039,41,39,40,059,33,40,47,049,38*78
$GPGLL,2617.12247,S,02804.24100,E,182755.00,A,D*74
$GPRMC,182756.00,A,2617.12244,S,02804.24099,E,0.052,,140323,,,D*6C
$GPVTG,,T,,M,0.052,N,0.097,K,D*2F
$GPGGA,182756.00,2617.12244,S,02804.24099,E,2,03,3.01,1637.7,M,23.0,M,,0000*72
$GPGSA,A,2,32,16,27,,,,,,,,,,3.17,3.01,1.00*06
$GPGSV,3,1,12,03,23,253,21,04,11,220,,16,52,296,42,22,64,051,33*74
$GPGSV,3,2,12,26,72,213,,27,21,357,33,28,45,127,,29,19,131,*72
$GPGSV,3,3,12,31,52,149,,32,35,039,39,39,40,059,33,40,47,049,38*77
$GPGLL,2617.12244,S,02804.24099,E,182756.00,A,D*75
$GPRMC,182757.00,A,2617.12242,S,02804.24097,E,0.006,,140323,,,D*64
$GPVTG,,T,,M,0.006,N,0.012,K,D*23
$GPGGA,182757.00,2617.12242,S,02804.24097,E,2,03,3.01,1637.7,M,23.0,M,,0000*7B
$GPGSA,A,2,32,16,27,,,,,,,,,,3.17,3.01,1.00*06
$GPGSV,3,1,12,03,23,253,21,04,11,220,,16,52,296,41,22,64,051,32*76
$GPGSV,3,2,12,26,72,213,,27,21,357,33,28,45,127,,29,19,131,*72
$GPGSV,3,3,12,31,52,149,,32,35,039,39,39,40,059,33,40,47,049,37*78
$GPGLL,2617.12242,S,02804.24097,E,182757.00,A,D*7C
$GPRMC,182758.00,A,2617.12245,S,02804.24098,E,0.135,,140323,,,D*62
$GPVTG,,T,,M,0.135,N,0.251,K,D*27
$GPGGA,182758.00,2617.12245,S,02804.24098,E,2,03,3.01,1637.5,M,23.0,M,,0000*7E
$GPGSA,A,2,32,16,27,,,,,,,,,,3.17,3.01,1.00*06
$GPGSV,3,1,12,03,23,253,21,04,11,220,,16,52,296,41,22,64,051,33*77
$GPGSV,3,2,12,26,72,212,,27,21,357,35,28,45,127,,29,19,131,*75
$GPGSV,3,3,12,31,52,149,,32,35,039,39,39,40,059,33,40,47,049,37*78
$GPGLL,2617.12245,S,02804.24098,E,182758.00,A,D*7B
$GPRMC,182759.00,A,2617.12247,S,02804.24098,E,0.036,,140323,,,D*63
$GPVTG,,T,,M,0.036,N,0.067,K,D*22
$GPGGA,182759.00,2617.12247,S,02804.24098,E,2,03,3.01,1637.7,M,23.0,M,,0000*7F
$GPGSA,A,2,32,16,27,,,,,,,,,,3.17,3.01,1.00*06
$GPGSV,3,1,12,03,23,253,21,04,11,220,,16,52,296,44,22,64,051,33*72
$GPGSV,3,2,12,26,72,212,,27,21,357,35,28,45,127,,29,19,131,*75
$GPGSV,3,3,12,31,52,149,,32,35,039,41,39,40,059,33,40,47,049,39*79
$GPGLL,2617.12247,S,02804.24098,E,182759.00,A,D*78
$GPRMC,182800.00,A,2617.12249,S,02804.24099,E,0.020,,140323,,,D*68
$GPVTG,,T,,M,0.020,N,0.038,K,D*2F
$GPGGA,182800.00,2617.12249,S,02804.24099,E,2,03,3.01,1637.4,M,23.0,M,,0000*70
$GPGSA,A,2,32,16,27,,,,,,,,,,3.17,3.01,1.00*06
$GPGSV,3,1,12,03,23,253,21,04,11,220,,16,52,296,42,22,64,051,33*74
$GPGSV,3,2,12,26,72,212,,27,21,357,35,28,45,126,,29,19,131,*74
$GPGSV,3,3,12,31,52,149,,32,35,039,39,39,40,059,33,40,47,049,37*78
$GPGLL,2617.12249,S,02804.24099,E,182800.00,A,D*74
$GPRMC,182801.00,A,2617.12252,S,02804.24101,E,0.061,,140323,,,D*66
$GPVTG,,T,,M,0.061,N,0.112,K,D*23
$GPGGA,182801.00,2617.12252,S,02804.24101,E,2,03,3.01,1637.5,M,23.0,M,,0000*7A
$GPGSA,A,2,32,16,27,,,,,,,,,,3.17,3.01,1.00*06
$GPGSV,3,1,12,03,23,253,21,04,11,220,,16,52,296,42,22,64,051,33*74
$GPGSV,3,2,12,26,72,212,,27,21,357,34,28,45,126,,29,19,131,*75
$GPGSV,3,3,12,31,52,149,,32,35,039,40,39,40,059,34,40,47,049,38*7E
$GPGLL,2617.12252,S,02804.24101,E,182801.00,A,D*7F
$GPRMC,182802.00,A,2617.12252,S,02804.24100,E,0.040,,140323,,,D*67
$GPVTG,,T,,M,0.040,N,0.073,K,D*26
$GPGGA,182802.00,2617.12252,S,02804.24100,E,2,03,3.01,1637.6,M,23.0,M,,0000*7B
$GPGSA,A,2,32,16,27,,,,,,,,,,3.17,3.01,1.00*06
$GPGSV,3,1,12,03,23,253,21,04,11,220,,16,52,296,42,22,64,051,33*74
$GPGSV,3,2,12,26,72,212,,27,21,357,33,28,45,126,,29,19,131,*72
$GPGSV,3,3,12,31,52,149,,32,35,039,39,39,40,059,33,40,47,049,37*78
$GPGLL,2617.12252,S,02804.24100,E,182802.00,A,D*7D
$GPRMC,182803.00,A,2617.12251,S,02804.24101,E,0.009,,140323,,,D*69
$GPVTG,,T,,M,0.009,N,0.017,K,D*29
$GPGGA,182803.00,2617.12251,S,02804.24101,E,2,03,3.01,1637.5,M,23.0,M,,0000*7B
$GPGSA,A,2,32,16,27,,,,,,,,,,3.17,3.01,1.00*06
$GPGSV,3,1,12,03,23,253,21,04,11,220,,16,52,296,40,22,64,051,33*76
$GPGSV,3,2,12,26,72,212,,27,21,357,33,28,45,126,,29,19,131,*72
$GPGSV,3,3,12,31,51,149,,32,35,039,38,39,40,059,33,40,47,049,37*7A
$GPGLL,2617.12251,S,02804.24101,E,182803.00,A,D*7E
$GPRMC,182804.00,A,2617.12254,S,02804.24103,E,0.027,,140323,,,D*65
$GPVTG,,T,,M,0.027,N,0.050,K,D*26
$GPGGA,182804.00,2617.12254,S,02804.24103,E,2,03,3.01,1637.8,M,23.0,M,,0000*76
$GPGSA,A,2,32,16,27,,,,,,,,,,3.18,3.01,1.00*09
$GPGSV,3,1,12,03,23,253,21,04,11,220,,16,52,296,43,22,64,051,33*75
$GPGSV,3,2,12,26,72,212,,27,21,357,33,28,45,126,,29,19,131,*72
$GPGSV,3,3,12,31,51,149,,32,35,039,39,39,40,059,34,40,47,049,38*73
$GPGLL,2617.12254,S,02804.24103,E,182804.00,A,D*7E
$GPRMC,182805.00,A,2617.12256,S,02804.24103,E,0.071,,140323,,,D*65
$GPVTG,,T,,M,0.071,N,0.132,K,D*20
$GPGGA,182805.00,2617.12256,S,02804.24103,E,2,03,3.01,1638.0,M,23.0,M,,0000*72
$GPGSA,A,2,32,16,27,,,,,,,,,,3.18,3.01,1.00*09
$GPGSV,3,1,12,03,23,253,22,04,11,220,,16,52,296,43,22,64,051,34*71
$GPGSV,3,2,12,26,72,212,,27,21,357,32,28,45,126,,29,19,131,*73
$GPGSV,3,3,12,31,51,149,,32,35,039,39,39,40,059,34,40,47,049,38*73
$GPGLL,2617.12256,S,02804.24103,E,182805.00,A,D*7D
$GPRMC,182806.00,A,2617.12256,S,02804.24104,E,0.064,,140323,,,D*65
$GPVTG,,T,,M,0.064,N,0.118,K,D*2C
$GPGGA,182806.00,2617.12256,S,02804.24104,E,2,03,3.01,1638.0,M,23.0,M,,0000*76
$GPGSA,A,2,32,16,27,,,,,,,,,,3.18,3.01,1.00*09
$GPGSV,3,1,12,03,23,253,22,04,11,220,,16,52,296,43,22,64,051,34*71
$GPGSV,3,2,12,26,72,212,,27,21,357,33,28,45,126,,29,19,131,19*7A
$GPGSV,3,3,12,31,51,149,,32,35,039,40,39,40,059,33,40,47,049,38*7A
$GPGLL,2617.12256,S,02804.24104,E,182806.00,A,D*79
$GPRMC,182807.00,A,2617.12259,S,02804.24106,E,0.114,,140323,,,D*6F
$GPVTG,,T,,M,0.114,N,0.210,K,D*21
$GPGGA,182807.00,2617.12259,S,02804.24106,E,2,03,3.01,1637.6,M,23.0,M,,0000*73
$GPGSA,A,2,32,16,27,,,,,,,,,,3.18,3.01,1.00*09
$GPGSV,3,1,12,03,23,253,21,04,11,220,,16,52,296,43,22,64,051,34*72
$GPGSV,3,2,12,26,72,212,,27,21,357,34,28,45,126,,29,19,131,*75
$GPGSV,3,3,12,31,51,149,,32,35,039,41,39,40,059,34,40,47,049,38*7C
$GPGLL,2617.12259,S,02804.24106,E,182807.00,A,D*75
$GPRMC,182808.00,A,2617.12262,S,02804.24108,E,0.094,,140323,,,D*6F
$GPVTG,,T,,M,0.094,N,0.175,K,D*28
$GPGGA,182808.00,2617.12262,S,02804.24108,E,2,03,3.01,1637.4,M,23.0,M,,0000*78
$GPGSA,A,2,32,16,27,,,,,,,,,,3.18,3.01,1.00*09
$GPGSV,3,1,12,03,23,253,22,04,11,220,,16,52,296,44,22,64,051,35*77
$GPGSV,3,2,12,26,72,212,08,27,21,357,34,28,45,126,,29,19,131,*7D
$GPGSV,3,3,12,31,51,149,,32,35,039,41,39,40,059,35,40,47,049,39*7C
$GPGLL,2617.12262,S,02804.24108,E,182808.00,A,D*7C
$GPRMC,182809.00,A,2617.12255,S,02804.24107,E,0.035,,140323,,,D*6E
$GPVTG,,T,,M,0.035,N,0.064,K,D*22
$GPGGA,182809.00,2617.12255,S,02804.24107,E,2,03,3.01,1637.5,M,23.0,M,,0000*73
$GPGSA,A,2,32,16,27,,,,,,,,,,3.18,3.01,1.00*09
$GPGSV,3,1,12,03,23,253,22,04,11,220,,16,52,296,43,22,64,051,34*71
$GPGSV,3,2,12,26,72,212,08,27,21,357,34,28,45,126,,29,19,131,23*7C
$GPGSV,3,3,12,31,51,149,,32,35,039,40,39,40,059,34,40,47,049,39*7C
$GPGLL,2617.12255,S,02804.24107,E,182809.00,A,D*76
$GPRMC,182810.00,A,2617.12248,S,02804.24104,E,0.009,,140323,,,D*66
$GPVTG,,T,,M,0.009,N,0.016,K,D*28
$GPGGA,182810.00,2617.12248,S,02804.24104,E,2,03,3.01,1637.6,M,23.0,M,,0000*77
$GPGSA,A,2,32,16,27,,,,,,,,,,3.18,3.01,1.00*09
$GPGSV,3,1,12,03,23,253,21,04,11,220,,16,52,296,42,22,64,051,33*74
$GPGSV,3,2,12,26,72,212,13,27,21,357,34,28,45,126,,29,19,131,20*75
$GPGSV,3,3,12,31,51,149,,32,35,039,40,39,40,059,33,40,47,049,37*75
$GPGLL,2617.12248,S,02804.24104,E,182810.00,A,D*71
$GPRMC,182811.00,A,2617.12244,S,02804.24104,E,0.056,,140323,,,D*61
$GPVTG,,T,,M,0.056,N,0.103,K,D*27
$GPGGA,182811.00,2617.12244,S,02804.24104,E,2,03,3.02,1637.3,M,23.0,M,,0000*7C
$GPGSA,A,2,32,16,27,,,,,,,,,,3.18,3.02,1.00*0A
$GPGSV,3,1,12,03,23,253,20,04,11,220,,16,52,296,42,22,64,051,33*75
$GPGSV,3,2,12,26,72,212,12,27,21,357,35,28,45,126,,29,19,131,17*71
$GPGSV,3,3,12,31,51,149,,32,35,039,41,39,40,059,32,40,47,049,38*7A
$GPGLL,2617.12244,S,02804.24104,E,182811.00,A,D*7C
$GPRMC,182812.00,A,2617.12244,S,02804.24104,E,0.032,,140323,,,D*60
$GPVTG,,T,,M,0.032,N,0.059,K,D*2B
$GPGGA,182812.00,2617.12244,S,02804.24104,E,2,04,6.15,1637.1,M,23.0,M,,0000*79
$GPGSA,A,3,26,32,16,27,,,,,,,,,13.60,6.15,12.13*02
$GPGSV,3,1,12,03,23,253,20,04,11,220,,16,52,296,41,22,64,051,33*76
$GPGSV,3,2,12,26,72,212,11,27,21,357,33,28,45,126,,29,19,131,*72
$GPGSV,3,3,12,31,51,149,,32,35,039,40,39,40,059,33,40,47,049,37*75
$GPGLL,2617.12244,S,02804.24104,E,182812.00,A,D*7F
$GPRMC,182813.00,A,2617.12246,S,02804.24104,E,0.062,,140323,,,D*66
$GPVTG,,T,,M,0.062,N,0.114,K,D*26
$GPGGA,182813.00,2617.12246,S,02804.24104,E,2,04,6.15,1636.7,M,23.0,M,,0000*7D
$GPGSA,A,3,26,32,16,27,,,,,,,,,13.60,6.15,12.13*02
$GPGSV,3,1,12,03,23,253,19,04,11,220,,16,52,296,42,22,64,051,33*7F
$GPGSV,3,2,12,26,72,212,11,27,21,357,34,28,45,126,,29,19,131,*75
$GPGSV,3,3,12,31,51,149,,32,35,039,41,39,40,059,33,40,47,049,38*7B
$GPGLL,2617.12246,S,02804.24104,E,182813.00,A,D*7C
$GPRMC,182814.00,A,2617.12248,S,02804.24105,E,0.124,,140323,,,D*6D
$GPVTG,,T,,M,0.124,N,0.230,K,D*20
$GPGGA,182814.00,2617.12248,S,02804.24105,E,2,04,6.15,1636.5,M,23.0,M,,0000*77
$GPGSA,A,3,26,32,16,27,,,,,,,,,13.61,6.15,12.14*04
$GPGSV,3,1,12,03,23,253,19,04,11,220,,16,52,296,42,22,64,051,33*7F
$GPGSV,3,2,12,26,72,212,11,27,21,357,34,28,45,126,,29,19,131,*75
$GPGSV,3,3,12,31,51,149,,32,35,039,41,39,40,059,33,40,47,049,38*7B
$GPGLL,2617.12248,S,02804.24105,E,182814.00,A,D*74
$GPRMC,182815.00,A,2617.12246,S,02804.24104,E,0.086,,140323,,,D*6A
$GPVTG,,T,,M,0.086,N,0.159,K,D*25
$GPGGA,182815.00,2617.12246,S,02804.24104,E,2,04,6.15,1636.4,M,23.0,M,,0000*78
$GPGSA,A,3,26,32,16,27,,,,,,,,,13.62,6.15,12.15*06
$GPGSV,3,1,12,03,23,253,18,04,11,220,,16,52,296,42,22,64,051,33*7E
$GPGSV,3,2,12,26,72,212,11,27,21,357,33,28,45,126,,29,19,131,*72
$GPGSV,3,3,12,31,51,149,,32,35,039,41,39,40,059,33,40,47,049,38*7B
$GPGLL,2617.12246,S,02804.24104,E,182815.00,A,D*7A
$GPRMC,182816.00,A,2617.12249,S,02804.24104,E,0.040,,140323,,,D*6C
$GPVTG,,T,,M,0.040,N,0.075,K,D*20
$GPGGA,182816.00,2617.12249,S,02804.24104,E,2,04,6.15,1636.3,M,23.0,M,,0000*73
$GPGSA,A,3,26,32,16,27,,,,,,,,,13.62,6.15,12.16*05
$GPGSV,3,1,12,03,23,253,18,04,11,220,,16,52,296,42,22,64,051,33*7E
$GPGSV,3,2,12,26,72,212,12,27,21,357,34,28,45,126,,29,19,131,*76
$GPGSV,3,3,12,31,51,149,,32,35,039,41,39,40,059,33,40,47,049,38*7B
$GPGLL,2617.12249,S,02804.24104,E,182816.00,A,D*76
$GPRMC,182817.00,A,2617.12252,S,02804.24105,E,0.064,,140323,,,D*60
$GPVTG,,T,,M,0.064,N,0.118,K,D*2C
$GPGGA,182817.00,2617.12252,S,02804.24105,E,2,04,6.16,1636.2,M,23.0,M,,0000*7B
$GPGSA,A,3,26,32,16,27,,,,,,,,,13.63,6.16,12.16*07
$GPGSV,3,1,12,03,23,253,18,04,11,220,,16,52,296,42,22,64,051,33*7E
$GPGSV,3,2,12,26,72,212,12,27,21,357,33,28,45,126,,29,19,131,*71
$GPGSV,3,3,12,31,51,149,,32,35,039,40,39,40,059,33,40,47,049,38*7A
$GPGLL,2617.12252,S,02804.24105,E,182817.00,A,D*7C
$GPRMC,182818.00,A,2617.12254,S,02804.24105,E,0.032,,140323,,,D*6A
$GPVTG,,T,,M,0.032,N,0.060,K,D*21
$GPGGA,182818.00,2617.12254,S,02804.24105,E,2,04,6.16,1636.2,M,23.0,M,,0000*72
$GPGSA,A,3,26,32,16,27,,,,,,,,,13.64,6.16,12.17*01
$GPGSV,3,1,12,03,23,253,17,04,11,220,,16,52,296,39,22,64,051,29*76
$GPGSV,3,2,12,26,72,212,13,27,21,357,30,28,45,126,,29,19,131,*73
$GPGSV,3,3,12,31,51,149,,32,35,039,38,39,40,059,32,40,47,049,35*79
$GPGLL,2617.12254,S,02804.24105,E,182818.00,A,D*75
$GPRMC,182819.00,A,2617.12251,S,02804.24104,E,0.081,,140323,,,D*67
$GPVTG,,T,,M,0.081,N,0.149,K,D*23
$GPGGA,182819.00,2617.12251,S,02804.24104,E,2,04,6.16,1636.2,M,23.0,M,,0000*77
$GPGSA,A,3,26,32,16,27,,,,,,,,,13.65,6.16,12.18*0F
$GPGSV,3,1,12,03,23,253,18,04,11,220,,16,52,296,44,22,64,051,34*7F
$GPGSV,3,2,12,26,72,212,14,27,21,357,35,28,45,126,,29,19,131,*71
$GPGSV,3,3,12,31,51,149,,32,35,039,42,39,40,059,34,40,47,049,39*7E
$GPGLL,2617.12251,S,02804.24104,E,182819.00,A,D*70
$GPRMC,182820.00,A,2617.12255,S,02804.24105,E,0.027,,140323,,,D*64
$GPVTG,,T,,M,0.027,N,0.050,K,D*26
$GPGGA,182820.00,2617.12255,S,02804.24105,E,2,04,6.16,1636.3,M,23.0,M,,0000*79
$GPGSA,A,3,26,32,16,27,,,,,,,,,13.65,6.16,12.18*0F
$GPGSV,3,1,12,03,23,253,19,04,11,220,,16,52,296,43,22,64,051,35*78
$GPGSV,3,2,12,26,72,212,14,27,21,357,35,28,45,126,04,29,19,131,*75
$GPGSV,3,3,12,31,51,149,,32,35,039,42,39,40,059,35,40,47,049,39*7F
$GPGLL,2617.12255,S,02804.24105,E,182820.00,A,D*7F
$GPRMC,182821.00,A,2617.12256,S,02804.24104,E,0.038,,140323,,,D*69
$GPVTG,,T,,M,0.038,N,0.070,K,D*2A
$GPGGA,182821.00,2617.12256,S,02804.24104,E,2,04,6.16,1636.3,M,23.0,M,,0000*7A
$GPGSA,A,3,26,32,16,27,,,,,,,,,13.66,6.16,12.19*0D
$GPGSV,3,1,12,03,23,253,20,04,11,220,,16,52,296,43,22,64,051,34*73
$GPGSV,3,2,12,26,72,212,14,27,21,357,34,28,45,126,06,29,19,131,*76
$GPGSV,3,3,12,31,51,149,,32,35,039,41,39,40,059,34,40,47,049,39*7D
$GPGLL,2617.12256,S,02804.24104,E,182821.00,A,D*7C
$GPRMC,182822.00,A,2617.12255,S,02804.24103,E,0.050,,140323,,,D*60
$GPVTG,,T,,M,0.050,N,0.093,K,D*29
$GPGGA,182822.00,2617.12255,S,02804.24103,E,2,04,6.16,1636.4,M,23.0,M,,0000*7A
$GPGSA,A,3,26,32,16,27,,,,,,,,,13.67,6.16,12.20*06
$GPGSV,3,1,12,03,23,253,20,04,12,220,,16,52,296,44,22,64,051,34*77
$GPGSV,3,2,12,26,72,212,15,27,21,357,35,28,45,126,08,29,19,131,*78
$GPGSV,3,3,12,31,51,149,,32,35,039,42,39,40,059,34,40,47,049,39*7E
$GPGLL,2617.12255,S,02804.24103,E,182822.00,A,D*7B
$GPRMC,182823.00,A,2617.12257,S,02804.24103,E,0.027,,140323,,,D*63
$GPVTG,,T,,M,0.027,N,0.051,K,D*27
$GPGGA,182823.00,2617.12257,S,02804.24103,E,2,04,6.17,1636.5,M,23.0,M,,0000*79
$GPGSA,A,3,26,32,16,27,,,,,,,,,13.68,6.17,12.21*09
$GPGSV,3,1,12,03,23,253,20,04,12,220,,16,52,296,43,22,64,051,34*70
$GPGSV,3,2,12,26,72,212,15,27,21,357,35,28,45,126,08,29,19,131,*78
$GPGSV,3,3,12,31,51,149,,32,35,039,42,39,40,059,34,40,47,049,39*7E
$GPGLL,2617.12257,S,02804.24103,E,182823.00,A,D*78
$GPRMC,182824.00,A,2617.12256,S,02804.24102,E,0.025,,140323,,,D*66
$GPVTG,,T,,M,0.025,N,0.046,K,D*23
$GPGGA,182824.00,2617.12256,S,02804.24102,E,2,04,6.17,1636.5,M,23.0,M,,0000*7E
$GPGSA,A,3,26,32,16,27,,,,,,,,,13.68,6.17,12.21*09
$GPGSV,3,1,12,03,23,253,20,04,12,220,,16,52,296,38,22,64,051,30*78
$GPGSV,3,2,12,26,72,212,14,27,21,357,31,28,45,126,07,29,19,131,*72
$GPGSV,3,3,12,31,51,149,,32,35,039,36,39,40,059,30,40,47,049,34*74
$GPGLL,2617.12256,S,02804.24102,E,182824.00,A,D*7F
$GPRMC,182825.00,A,2617.12256,S,02804.24102,E,0.008,,140323,,,D*68
$GPVTG,,T,,M,0.008,N,0.015,K,D*2A
$GPGGA,182825.00,2617.12256,S,02804.24102,E,2,04,6.17,1636.6,M,23.0,M,,0000*7C
$GPGSA,A,3,26,32,16,27,,,,,,,,,13.69,6.17,12.22*0B
$GPGSV,3,1,12,03,23,253,19,04,12,220,,16,52,296,37,22,64,051,24*78
$GPGSV,3,2,12,26,72,212,13,27,21,357,30,28,45,126,07,29,19,131,*74
$GPGSV,3,3,12,31,51,149,,32,35,039,38,39,40,059,29,40,47,049,31*77
$GPGLL,2617.12256,S,02804.24102,E,182825.00,A,D*7E
$GPRMC,182826.00,A,2617.12246,S,02804.24097,E,0.093,,140323,,,D*65
$GPVTG,,T,,M,0.093,N,0.172,K,D*28
$GPGGA,182826.00,2617.12246,S,02804.24097,E,2,05,2.39,1636.6,M,23.0,M,,0000*7A
$GPGSA,A,3,26,28,32,16,27,,,,,,,,5.67,2.39,5.14*03
$GPGSV,3,1,12,03,23,253,21,04,12,220,,16,52,296,42,22,64,051,34*70
$GPGSV,3,2,12,26,72,212,11,27,21,357,35,28,45,126,08,29,19,131,*7C
$GPGSV,3,3,12,31,51,149,,32,35,039,42,39,40,059,34,40,47,049,39*7E
$GPGLL,2617.12246,S,02804.24097,E,182826.00,A,D*71
$GPRMC,182827.00,A,2617.12239,S,02804.24093,E,0.165,,140323,,,D*60
$GPVTG,,T,,M,0.165,N,0.306,K,D*21
$GPGGA,182827.00,2617.12239,S,02804.24093,E,2,05,2.39,1636.6,M,23.0,M,,0000*77
$GPGSA,A,3,26,28,32,16,27,,,,,,,,5.67,2.39,5.14*03
$GPGSV,3,1,12,03,23,253,21,04,12,220,,16,52,296,41,22,64,051,32*75
$GPGSV,3,2,12,26,72,212,13,27,21,357,34,28,45,126,08,29,19,131,*7F
$GPGSV,3,3,12,31,51,149,,32,35,039,40,39,40,059,33,40,47,049,37*75
$GPGLL,2617.12239,S,02804.24093,E,182827.00,A,D*7C
$GPRMC,182828.00,A,2617.12238,S,02804.24092,E,0.215,,140323,,,D*6B
$GPVTG,,T,,M,0.215,N,0.398,K,D*22
$GPGGA,182828.00,2617.12238,S,02804.24092,E,2,05,2.39,1636.6,M,23.0,M,,0000*78
$GPGSA,A,3,26,28,32,16,27,,,,,,,,5.67,2.39,5.14*03
$GPGSV,3,1,12,03,23,253,20,04,12,220,,16,52,296,41,22,64,051,33*75
$GPGSV,3,2,12,26,72,212,12,27,21,357,34,28,45,126,08,29,19,131,*7E
$GPGSV,3,3,12,31,51,149,,32,35,039,41,39,40,059,33,40,47,049,37*74
$GPGLL,2617.12238,S,02804.24092,E,182828.00,A,D*73
$GPRMC,182829.00,A,2617.12232,S,02804.24090,E,0.174,,140323,,,D*66
$GPVTG,,T,,M,0.174,N,0.323,K,D*26
$GPGGA,182829.00,2617.12232,S,02804.24090,E,2,05,2.39,1636.6,M,23.0,M,,0000*71
$GPGSA,A,3,26,28,32,16,27,,,,,,,,5.67,2.39,5.15*02
$GPGSV,3,1,12,03,23,253,20,04,12,220,,16,52,296,42,22,64,051,33*76
$GPGSV,3,2,12,26,72,212,10,27,21,357,34,28,45,126,08,29,19,131,*7C
$GPGSV,3,3,12,31,51,149,,32,35,039,41,39,40,059,33,40,47,049,37*74
$GPGLL,2617.12232,S,02804.24090,E,182829.00,A,D*7A
$GPRMC,182830.00,A,2617.12229,S,02804.24089,E,0.088,,140323,,,D*6E
$GPVTG,,T,,M,0.088,N,0.163,K,D*22
$GPGGA,182830.00,2617.12229,S,02804.24089,E,2,04,2.42,1636.6,M,23.0,M,,0000*76
$GPGSA,A,3,28,32,16,27,,,,,,,,,6.42,2.42,5.94*07
$GPGSV,3,1,12,03,23,253,20,04,12,220,,16,52,296,42,22,64,051,33*76
$GPGSV,3,2,12,26,72,212,09,27,21,357,34,28,45,126,08,29,19,131,*74
$GPGSV,3,3,12,31,51,149,,32,35,039,41,39,40,059,33,40,47,049,38*7B
$GPGLL,2617.12229,S,02804.24089,E,182830.00,A,D*70
$GPRMC,182831.00,A,2617.12230,S,02804.24089,E,0.096,,140323,,,D*68
$GPVTG,,T,,M,0.096,N,0.178,K,D*27
$GPGGA,182831.00,2617.12230,S,02804.24089,E,2,04,2.42,1636.6,M,23.0,M,,0000*7F
$GPGSA,A,3,28,32,16,27,,,,,,,,,6.42,2.42,5.95*06
$GPGSV,3,1,12,03,23,253,20,04,12,220,,16,52,296,41,22,64,051,33*75
$GPGSV,3,2,12,26,72,212,08,27,21,357,34,28,45,126,08,29,19,131,*75
$GPGSV,3,3,12,31,51,149,,32,35,039,41,39,40,059,33,40,47,049,38*7B
$GPGLL,2617.12230,S,02804.24089,E,182831.00,A,D*79
$GPRMC,182832.00,A,2617.12225,S,02804.24088,E,0.082,,140323,,,D*6B
$GPVTG,,T,,M,0.082,N,0.152,K,D*2A
$GPGGA,182832.00,2617.12225,S,02804.24088,E,2,05,2.39,1636.6,M,23.0,M,,0000*74
$GPGSA,A,3,26,28,32,16,27,,,,,,,,5.68,2.39,5.16*0E
$GPGSV,3,1,12,03,23,253,20,04,12,220,,16,52,296,42,22,64,051,33*76
$GPGSV,3,2,12,26,72,212,11,27,21,357,34,28,45,126,10,29,19,131,*74
$GPGSV,3,3,12,31,51,149,,32,35,039,41,39,40,059,33,40,47,049,38*7B
$GPGLL,2617.12225,S,02804.24088,E,182832.00,A,D*7F
$GPRMC,182833.00,A,2617.12219,S,02804.24085,E,0.075,,140323,,,D*60
$GPVTG,,T,,M,0.075,N,0.139,K,D*2F
$GPGGA,182833.00,2617.12219,S,02804.24085,E,2,05,2.39,1636.6,M,23.0,M,,0000*77
$GPGSA,A,3,26,28,32,16,27,,,,,,,,5.69,2.39,5.16*0F
$GPGSV,3,1,12,03,23,253,20,04,12,220,,16,52,296,41,22,64,051,32*74
$GPGSV,3,2,12,26,72,212,11,27,21,357,33,28,45,126,10,29,19,131,*73
$GPGSV,3,3,12,31,51,149,,32,35,039,40,39,40,059,32,40,47,049,38*7B
$GPGLL,2617.12219,S,02804.24085,E,182833.00,A,D*7C
$GPRMC,182834.00,A,2617.12218,S,02804.24085,E,0.123,,140323,,,D*64
$GPVTG,,T,,M,0.123,N,0.227,K,D*21
$GPGGA,182834.00,2617.12218,S,02804.24085,E,2,05,2.40,1636.5,M,23.0,M,,0000*7C
$GPGSA,A,3,26,28,32,16,27,,,,,,,,5.69,2.40,5.16*01
$GPGSV,3,1,12,03,23,253,20,04,12,220,,16,52,295,41,22,64,051,33*76
$GPGSV,3,2,12,26,72,212,11,27,21,357,34,28,45,126,10,29,19,131,*74
$GPGSV,3,3,12,31,51,149,,32,35,039,40,39,40,059,33,40,47,049,37*75
$GPGLL,2617.12218,S,02804.24085,E,182834.00,A,D*7A
$GPRMC,182835.00,A,2617.12220,S,02804.24086,E,0.111,,140323,,,D*6C
$GPVTG,,T,,M,0.111,N,0.205,K,D*20
$GPGGA,182835.00,2617.12220,S,02804.24086,E,2,05,2.40,1636.5,M,23.0,M,,0000*75
$GPGSA,A,3,26,28,32,16,27,,,,,,,,5.69,2.40,5.17*00
$GPGSV,3,1,12,03,23,253,19,04,12,220,,16,52,295,36,22,64,051,28*76
$GPGSV,3,2,12,26,72,212,11,27,21,357,30,28,45,126,10,29,19,131,*70
$GPGSV,3,3,12,31,51,149,,32,35,039,37,39,40,059,32,40,47,049,35*76
$GPGLL,2617.12220,S,02804.24086,E,182835.00,A,D*73
$GPRMC,182836.00,A,2617.12231,S,02804.24089,E,0.122,,140323,,,D*60
$GPVTG,,T,,M,0.122,N,0.226,K,D*21
$GPGGA,182836.00,2617.12231,S,02804.24089,E,2,05,2.40,1636.4,M,23.0,M,,0000*78
$GPGSA,A,3,26,28,32,16,27,,,,,,,,5.70,2.40,5.17*08
$GPGSV,3,1,12,03,23,253,20,04,12,220,,16,52,295,43,22,64,051,34*73
$GPGSV,3,2,12,26,72,212,10,27,21,357,36,28,45,126,10,29,19,131,19*7F
$GPGSV,3,3,12,31,51,149,,32,35,039,42,39,40,059,34,40,47,049,39*7E
$GPGLL,2617.12231,S,02804.24089,E,182836.00,A,D*7F
$GPRMC,182837.00,A,2617.12233,S,02804.24089,E,0.176,,140323,,,D*62
$GPVTG,,T,,M,0.176,N,0.327,K,D*20
$GPGGA,182837.00,2617.12233,S,02804.24089,E,2,05,2.40,1636.4,M,23.0,M,,0000*7B
$GPGSA,A,3,26,28,32,16,27,,,,,,,,5.70,2.40,5.17*08
$GPGSV,3,1,12,03,23,253,20,04,12,220,,16,52,295,39,22,64,051,31*7B
$GPGSV,3,2,12,26,72,212,10,27,21,357,33,28,45,126,10,29,19,131,17*74
$GPGSV,3,3,12,31,51,149,,32,35,039,38,39,40,059,31,40,47,049,34*7B
$GPGLL,2617.12233,S,02804.24089,E,182837.00,A,D*7C
$GPRMC,182838.00,A,2617.12237,S,02804.24092,E,0.150,,140323,,,D*67
$GPVTG,,T,,M,0.150,N,0.277,K,D*20
$GPGGA,182838.00,2617.12237,S,02804.24092,E,2,05,2.40,1636.4,M,23.0,M,,0000*7A
$GPGSA,A,3,26,28,32,16,27,,,,,,,,5.70,2.40,5.18*07
$GPGSV,3,1,12,03,23,253,,04,12,220,,16,52,295,41,22,64,051,32*75
$GPGSV,3,2,12,26,72,212,12,27,21,357,34,28,45,126,12,29,19,131,*75
$GPGSV,3,3,12,31,51,149,,32,35,039,41,39,40,059,33,40,47,049,38*7B
$GPGLL,2617.12237,S,02804.24092,E,182838.00,A,D*7D
$GPRMC,182839.00,A,2617.12245,S,02804.24095,E,0.211,,140323,,,D*62
$GPVTG,,T,,M,0.211,N,0.390,K,D*2E
$GPGGA,182839.00,2617.12245,S,02804.24095,E,2,05,2.40,1636.4,M,23.0,M,,0000*79
$GPGSA,A,3,26,28,32,16,27,,,,,,,,5.71,2.40,5.18*06
$GPGSV,3,1,12,03,23,253,20,04,12,220,,16,52,295,41,22,64,051,33*76
$GPGSV,3,2,12,26,72,212,12,27,21,357,34,28,45,126,12,29,19,131,*75
$GPGSV,3,3,12,31,51,149,,32,35,039,41,39,40,059,33,40,47,049,38*7B
$GPGLL,2617.12245,S,02804.24095,E,182839.00,A,D*7E
$GPRMC,182840.00,A,2617.12251,S,02804.24097,E,0.128,,140323,,,D*62
$GPVTG,,T,,M,0.128,N,0.237,K,D*2B
$GPGGA,182840.00,2617.12251,S,02804.24097,E,2,05,2.40,1636.4,M,23.0,M,,0000*70
$GPGSA,A,3,26,28,32,16,27,,,,,,,,5.71,2.40,5.18*06
$GPGSV,3,1,12,03,23,253,20,04,12,220,,16,52,295,40,22,64,050,30*75
$GPGSV,3,2,12,26,72,212,12,27,21,357,33,28,45,126,12,29,19,131,*72
$GPGSV,3,3,12,31,51,149,,32,35,039,40,39,40,059,32,40,47,049,35*76
$GPGLL,2617.12251,S,02804.24097,E,182840.00,A,D*77
$GPRMC,182841.00,A,2617.12254,S,02804.24097,E,0.076,,140323,,,D*6C
$GPVTG,,T,,M,0.076,N,0.141,K,D*23
$GPGGA,182841.00,2617.12254,S,02804.24097,E,2,05,2.40,1636.4,M,23.0,M,,0000*74
$GPGSA,A,3,26,28,32,16,27,,,,,,,,5.71,2.40,5.19*07
$GPGSV,3,1,12,03,23,253,,04,12,220,,16,52,295,41,22,64,050,32*74
$GPGSV,3,2,12,26,72,212,12,27,21,357,33,28,45,126,12,29,19,131,*72
$GPGSV,3,3,12,31,51,149,,32,35,039,40,39,40,059,32,40,47,049,37*74
$GPGLL,2617.12254,S,02804.24097,E,182841.00,A,D*73
$GPRMC,182842.00,A,2617.12259,S,02804.24098,E,0.147,,140323,,,D*6E
$GPVTG,,T,,M,0.147,N,0.271,K,D*20
$GPGGA,182842.00,2617.12259,S,02804.24098,E,2,05,2.40,1636.4,M,23.0,M,,0000*75
$GPGSA,A,3,26,28,32,16,27,,,,,,,,5.72,2.40,5.19*04
$GPGSV,3,1,12,03,23,253,,04,12,220,,16,52,295,43,22,64,050,32*76
$GPGSV,3,2,12,26,72,212,12,27,21,357,34,28,45,126,12,29,19,131,*75
$GPGSV,3,3,12,31,51,149,,32,35,039,42,39,40,059,33,40,47,049,37*77
$GPGLL,2617.12259,S,02804.24098,E,182842.00,A,D*72
$GPRMC,182843.00,A,2617.12265,S,02804.24100,E,0.156,,140323,,,D*60
$GPVTG,,T,,M,0.156,N,0.289,K,D*27
